$GPGSV,3,2,12,07,40,061,50,10,27,175,,15,14,295,15,19,08,052,23*70
$GPGSV,3,3,12,21,05,331,,13,04,109,,03,03,024,,49,,,*48
$GPRMC,070119.000,A,4813.0606,N,01619.0771,E,0.72,141.85,270711,,,A*6E
$GPVTG,141.85,T,,M,0.72,N,1.34,K,A*37
$GPGGA,070120.000,4813.0602,N,01619.0772,E,1,6,1.28,306.0,M,43.4,M,,*54
$GPGSA,A,3,08,28,07,26,15,19,,,,,,,1.54,1.28,0.85*09
$GPGSV,3,1,12,08,69,051,35,05,57,240,16,26,49,299,27,28,47,154,29*77
$GPGSV,3,2,12,07,40,061,50,10,27,175,,15,14,295,15,19,08,052,24*77
$GPGSV,3,3,12,21,05,331,,13,04,109,,03,03,024,,49,,,*48
$GPRMC,070120.000,A,4813.0602,N,01619.0772,E,0.71,142.93,270711,,,A*64
$GPVTG,142.93,T,,M,0.71,N,1.32,K,A*36
$GPGGA,070121.000,4813.0595,N,01619.0774PRMC,070123.000,A,4813.0583,N,01619.0777,E,0.75,137.95,270711,,,A*68
$GPVTG,137.95,T,,M,0.75,N,1.39,K,A*3D
1,35,05,57,240,16,26,49,299,28,28,47,154,30*70
$GPGSV,3,2,12,07,40,061,50,10,27,175,,15,14,295,15,19,08,052,24*77
$GPGSV,3,3,12,21,05,331,,13,04,109,,03,03,024,,51,,,*41
$GPRMC,070121.000,A,4813.0595,N,01619.0774,E,0.75,141.55,270711,,,A*63
$GPVTG,141.55,T,,M,0.75,N,1.39,K,A*30
$GPGGA,070122.000,4813.0591,N,01619.0778,E,1,6,1.28,305.9,M,43.4,M,,*5F
$GPGSA,A,3,08,28,07,26,15,19,,,,,,,1.54,1.28,0.85*09
$GPGSV,3,1,12,08,69,051,35,05,57,240,16,26,49,299,28,28,47,154,30*70
$GPGSV,3,2,12,07,40,061,50,10,27,175,25,15,14,295,15,19,08,052,24*70,139.53,T,,M,0.65,N,1.21,K,A*31
1,35,05,57,240,16,26,49,299,29,28,47,154,30*71
$GPGSV,3,2,12,07,40,061,50,10,27,175,27,15,14,295,,19,08,052,23*71
$GPGSV,3,3,12,21N,0.92,K,A*3A
$GPGGA,070131.000,4813.0551,N,01619.0751,E,1,6,1.37,305.1,M,43.4,M,,*5C
$GPGSA,A,3,08,28,07,26,05,19,,,,,,,1.64,1.37,0.91*00
$GPGSV,3,1,12,08,69,051,35,05,57,240,18,26,49,299,29,28,47,154,31*7E
$GPGSV,3,2,12,07,40,061,50,10,27,175,28,15,14,295,,19,08,052,21*7C
$GPGSV,3,3,12,21,05,331,,13,04,109,,03,03,024,,4226,49,299,28,28,47,154,31*7F
$GPGSV,3,2,12,07,40,061,50,10,27,175,28,15,14,295,,19,08,052,18*76
$GPGSV,3,3,12,21,05,331,,13,04,109,,03,03,024,,42,,,32*42
$GPRMC,070134.000,A,4813.0548,N,01619.0750,E,0.44,152.82,270711,,,A*6B
$GPVTG,152.82,T,,M,0.44,N,0.82,K,A*3B
1,35,05,57,240,18,26,49,299,29,28,47,154,31*7E
$GPGSV,3,2,12,07,40,061,50,10,27,175,28,15,14,295,,19,08,052,20*7D
$GPGSV,3,3,12,21,05,331,,13,04,109,,03,03,024,,42,,,*43
$GPRMC,070132.000,A,4813.0550,N,01619.0749,E,0.38,146.73,270711,,,A*6C
$GPVTG,146.73,T,,M,0.38,N,0.71,K,A*37
$GPGGA,070133.000,4813.0549,N,01619.0749,E,1,6,1.37,305.1,M,43.4,M,,*5E
$GPGSA,A,3,08,28,07,26,05,19,,,,,,,1.64,1.37,0.91*00
$GPGSV,3,1,12,08,69,051,35,05,57,240,18,26,49,299,29,28,47,154,31*7E
$GPGSV,3,2,12,07,40,061,50,10,27,175,29,15,14,295,,19,08,052,19*76
$GPGSV,3,3,12,21,05,331,,13,04,109,,03,03,024,,42,,,*43
$GPRMC,070133.000,A,4813.0549,N,01619.0749,E,0.38,148.52,270711,,,A*68
$GPVTG,148.52,T,,M,0.38,N,0.70,K,A*3B
$GPGGA,070134.000,4813.0548,N,01619.0750,E,1,6,1.37,305.1,M,43.4,M,,*50
$GPGSA,A,3,08,28,07,26,05,19,,,,,,,1.64,1.37,0.91*00
$GPGSV,3,1,12,08,69,051,35,05,57,240,18,26,49,299,28,28,47,154,31*7F
$GPGSV,3,2,12,07,40,061,50,10,27,175,28,15,14,295,,19,08,052,18*76
$GPGSV,3,3,12,21,05,331,,13,04,109,,03,03,024,,42,,,32*42
$GPRMC,070134.000,A,4813.0548,N,01619.0750,E,0.44,152.82,270711,,,A*6B
$GPVTG,152.82,T,,M,0.44,N,0.82,K,A*3B
$GPGGA,070135.000,4813.0547,N,01619.0750,E,1,6,1.37,305.1,M,43.4,M,,*5E
$GPGSA,A,3,08,28,07,26,05,19,,,,,,,1.64,1.37,0.91*00
$GPGSV,3,1,12,08,69,051,35,05,57,239,18,26,49,299,28,28,47,154,31*71
$GPGSV,3,2,12,07,40,061,50,10,27,175,27,15,14,295,,19,08,052,17*76
$GPGSV,3,3,12,21,05,331,,13,04,109,,03,03,024,,42,,,*43
$GPRMC,070135.000,A,4813.0547,N,01619.0750,E,0.44,154.50,270711,,,A*6C
$GPVTG,154.50,T,,M,0.44,N,0.81,K,A*31
$GPGGA,070136.000,4813.0546,N,01619.0751,E,1,6,1.37,305.1,M,43.4,M,,*5D
$GPGSA,A,3,08,28,07,26,05,19,,,,,,,1.64,1.37,0.91*00
$GPGSV,3,1,12,08,69,051,35,05,57,239,18,26,49,299,27,28,47,154,30*7F
$GPGSV,3,2,12,07,40,061,50,10,27,175,28,15,14,295,,19,08,052,16*78
$GPGSV,3,3,12,21,05,331,,13,04,109,,03,03,024,,42,,,*43
$GPRMC,070136.000,A,4813.0546,N,01619.0751,E,0.44,156.48,270711,,,A*64
$GPVTG,156.48,T,,M,0.44,N,0.81,K,A*3A
$GPGGA,070137.000,4813.0544,N,01619.0751,E,1,6,1.37,305.1,M,43.4,M,,*5E
$GPGSA,A,3,08,28,07,26,05,19,,,,,,,1.64,1.37,0.91*00
$GPGSV,3,1,12,08,69,051,35,05,57,239,18,26,49,299,27,28,47,154,30*7F
$GPGSV,3,2,12,07,40,061,50,10,27,175,28,15,14,295,,19,08,052,15*7B
$GPGSV,3,3,12,21,05,331,,13,04,109,,03,03,024,,42,,,*43
$GPRMC,070137.000,A,4813.0544,N,01619.0751,E,0.39,157.20,270711,,,A*62
$GPVTG,157.20,T,,M,0.39,N,0.73,K,A*32
$GPGGA,070138.000,4813.0543,N,01619.0752,E,1,6,1.37,305.1,M,43.4,M,,*55
$GPGSA,A,3,08,28,07,26,05,19,,,,,,,1.64,1.37,0.91*00
$GPGSV,3,1,12,08,69,051,35,05,57,239,18,26,49,299,26,28,47,154,30*7E
$GPGSV,3,2,12,07,40,061,50,10,27,175,28,15,14,295,,19,08,052,15*7B
$GPGSV,3,3,12,21,05,331,,13,04,109,,03,03,024,,42,,,*43
$GPRMC,070138.000,A,4813.0543,N,01619.0752,E,0.39,159.12,270711,,,A*66
$GPVTG,159.12,T,,M,0.39,N,0.73,K,A*3D
$GPGGA,070139.000,4813.0542,N,01619.0752,E,1,6,1.37,305.1,M,43.4,M,,*55
$GPGSA,A,3,08,28,07,26,05,19,,,,,,,1.64,1.37,0.91*00
$GPGSV,3,1,12,08,69,051,35,05,57,239,18,26,49,299,25,28,47,154,30*7D
$GPGSV,3,2,12,07,40,061,50,10,27,175,28,15,14,295,,19,08,052,15*7B
$GPGSV,3,3,12,21,05,331,,13,04,109,,03,03,024,,42,,,*43
$GPRMC,070139.000,A,4813.0542,N,01619.0752,E,0.51,167.03,270711,,,A*65
$GPVTG,167.03,T,,M,0.51,N,0.94,K,A*37
$GPGGA,070140.000,4813.0541,N,01619.0752,E,1,6,1.37,305.1,M,43.4,M,,*58
$GPGSA,A,3,08,28,07,26,05,19,,,,,,,1.64,1.37,0.91*00
$GPGSV,3,1,12,08,69,051,35,05,57,239,18,26,49,299,25,28,47,154,30*7D
$GPGSV,3,2,12,07,40,061,50,10,26,175,28,15,14,295,,19,08,052,15*7A
$GPGSV,3,3,12,21,05,331,,13,04,109,,03,03,024,,50,,,*40
$GPRMC,070140.000,A,4813.0541,N,01619.0752,E,0.40,174.34,270711,,,A*6E
$GPVTG,174.34,T,,M,0.40,N,0.74,K,A*3F
$GPGGA,070141.000,4813.0540,N,01619.0751,E,1,5,1.48,305.1,M,43.4,M,,*50
$GPGSA,A,3,08,28,07,26,19,,,,,,,,1.74,1.48,0.91*0C
$GPGSV,3,1,12,08,69,051,36,05,57,239,17,26,49,299,25,28,47,154,30*71
$GPGSV,3,2,12,07,40,061,50,10,26,175,28,15,14,295,,19,08,052,15*7A
$GPGSV,3,3,12,21,05,331,,13,04,109,,03,03,024,,50,,,*40
$GPRMC,070141.000,A,4813.0540,N,01619.0751,E,0.41,184.04,270711,,,A*60
$GPVTG,184.04,T,,M,0.41,N,0.75,K,A*33
$GPGGA,070142.000,4813.0539,N,01619.0750,E,1,5,1.48,305.0,M,43.4,M,,*5D
$GPGSA,A,3,08,28,07,26,19,,,,,,,,1.74,1.48,0.91*0C
$GPGSV,3,1,12,08,69,051,36,05,57,239,16,26,49,299,24,28,47,154,29*79
$GPGSV,3,2,12,07,40,061,50,10,26,175,28,15,14,295,,19,08,052,15*7A
$GPGSV,3,3,12,21,05,331,,13,04,109,,03,03,024,,50,,,32*41
$GPRMC,070142.000,A,4813.0539,N,01619.0750,E,0.54,198.35,270711,,,A*67
$GPVTG,198.35,T,,M,0.54,N,1.00,K,A*3B
$GPGGA,070143.000,4813.0538,N,01619.0748,E,1,5,1.48,305.0,M,43.4,M,,*54
$GPGSA,A,3,08,28,07,26,19,,,,,,,,1.74,1.48,0.91*0C
$GPGSV,3,1,12,08,69,051,36,05,57,239,15,26,49,299,23,28,47,154,29*7D
$GPGSV,3,2,12,07,40,061,50,10,26,175,28,15,14,295,,19,08,052,14*7B
$GPGSV,3,3,12,21,05,331,,13,03,109,,03,03,024,,50,,,30*44
$GPRMC,070143.000,A,4813.0538,N,01619.0748,E,0.31,205.46,270711,,,A*6E
$GPVTG,205.46,T,,M,0.31,N,0.57,K,A*38
$GPGGA,070144.000,4813.0537,N,01619.0747,E,1,4,1.68,305.0,M,43.4,M,,*50
$GPGSA,A,3,08,28,07,26,,,,,,,,,1.94,1.68,0.98*01
$GPGSV,3,1,12,08,69,051,36,05,57,239,15,26,49,299,23,28,47,154,29*7D
$GPGSV,3,2,12,07,40,061,50,10,26,175,28,15,14,295,,19,08,052,*7E
$GPGSV,3,3,12,21,05,331,,13,03,109,,03,03,024,,50,,,30*44
$GPRMC,070144.000,A,4813.0537,N,01619.0747,E,0.34,214.68,270711,,,A*60
$GPVTG,214.68,T,,M,0.34,N,0.63,K,A*36
$GPGGA,070145.000,4813.0537,N,01619.0745,E,1,5,1.50,305.0,M,43.4,M,,*59
$GPGSA,A,3,08,28,07,26,15,,,,,,,,1.76,1.50,0.92*08
$GPGSV,3,1,12,08,69,051,36,05,57,239,15,26,49,299,23,28,47,154,29*7D
$GPGSV,3,2,12,07,40,061,50,10,26,175,28,15,14,295,19,19,08,052,*76
$GPGSV,3,3,12,21,05,331,,13,03,109,,03,03,024,,50,,,31*45
$GPRMC,070145.000,A,4813.0537,N,01619.0745,E,0.57,226.27,270711,,,A*6C
$GPVTG,226.27,T,,M,0.57,N,1.05,K,A*38
$GPGGA,070146.000,4813.0536,N,01619.0743,E,1,7,1.28,305.0,M,43.4,M,,*50
$GPGSA,A,3,08,28,07,10,26,15,19,,,,,,1.54,1.28,0.86*0B
$GPGSV,3,1,12,08,69,051,36,05,57,239,,26,49,299,23,28,47,154,29*79
$GPGSV,3,2,12,07,40,061,50,10,26,175,29,15,14,295,19,19,08,052,15*73
$GPGSV,3,3,12,21,05,331,,13,03,109,,03,03,024,,50,,,30*44
$GPRMC,070146.000,A,4813.0536,N,01619.0743,E,0.55,237.07,270711,,,A*68
$GPVTG,237.07,T,,M,0.55,N,1.01,K,A*3C
$GPGGA,070147.000,4813.0534,N,01619.0745,E,1,6,1.28,305.1,M,43.4,M,,*55
$GPGSA,A,3,08,28,07,26,15,19,,,,,,,1.54,1.28,0.86*0A
$GPGSV,3,1,12,08,69,051,36,05,57,239,16,26,49,299,22,28,47,154,28*7E
$GPGSV,3,2,12,07,40,061,50,10,26,175,29,15,14,295,19,19,08,052,16*70
$GPGSV,3,3,12,21,05,331,,13,03,109,,03,03,024,,50,,,*47
$GPRMC,070147.000,A,4813.0534,N,01619.0745,E,0.40,242.88,270711,,,A*6C
$GPVTG,242.88,T,,M,0.40,N,0.74,K,A*3E
$GPGGA,070148.000,4813.0534,N,01619.0744,E,1,7,1.19,305.1,M,43.4,M,,*58
$GPGSA,A,3,08,28,07,26,15,05,19,,,,,,1.46,1.19,0.85*0D
$GPGSV,3,1,12,08,69,051,36,05,57,239,18,26,49,299,22,28,47,154,27*7F
$GPGSV,3,2,12,07,40,061,50,10,26,175,29,15,14,295,22,19,08,052,17*79
$GPGSV,3,3,12,21,05,331,,13,03,109,,03,03,024,,50,,,31*45
$GPRMC,070148.000,A,4813.0534,N,01619.0744,E,0.34,245.10,270711,,,A*67
$GPVTG,245.10,T,,M,0.34,N,0.63,K,A*3D
$GPGGA,070149.000,4813.0533,N,01619.0743,E,1,7,1.19,305.1,M,43.4,M,,*59
$GPGSA,A,3,08,28,07,26,15,05,19,,,,,,1.46,1.19,0.85*0D
$GPGSV,3,1,12,08,69,051,36,05,57,239,20,26,49,299,22,28,47,154,27*74
$GPGSV,3,2,12,07,40,061,50,10,26,175,29,15,14,295,24,19,08,052,17*7F
$GPGSV,3,3,12,21,05,331,,13,03,109,,03,03,024,,50,,,*47
$GPRMC,070149.000,A,4813.0533,N,01619.0743,E,0.26,238.78,270711,,,A*61
$GPVTG,238.78,T,,M,0.26,N,0.48,K,A*33
$GPGGA,070150.000,4813.0532,N,01619.0742,E,1,7,1.19,305.1,M,43.4,M,,*51
$GPGSA,A,3,08,28,07,26,15,05,19,,,,,,1.46,1.19,0.85*0D
$GPGSV,3,1,12,08,69,051,37,05,57,239,23,26,49,299,21,28,47,154,27*75
$GPGSV,3,2,12,07,40,061,50,10,26,175,29,15,14,295,23,19,08,052,17*78
$GPGSV,3,3,12,21,05,331,,13,03,109,,03,03,024,,48,,,*4E
$GPRMC,070150.000,A,4813.0532,N,01619.0742,E,0.22,231.62,270711,,,A*6F
$GPVTG,231.62,T,,M,0.22,N,0.41,K,A*3C
$GPGGA,070151.000,4813.0532,N,01619.0742,E,1,7,1.19,305.1,M,43.4,M,,*50
$GPGSA,A,3,08,28,07,26,15,05,19,,,,,,1.46,1.19,0.85*0D
$GPGSV,3,1,12,08,69,051,37,05,57,239,21,26,49,299,20,28,47,154,27*76
$GPGSV,3,2,12,07,40,061,50,10,26,175,29,15,14,295,22,19,08,052,17*79
$GPGSV,3,3,12,21,05,331,,13,03,109,,03,03,024,,48,,,*4E
$GPRMC,070151.000,A,4813.0532,N,01619.0742,E,0.35,225.00,270711,,,A*69
$GPVTG,225.00,T,,M,0.35,N,0.66,K,A*3E
$GPGGA,070152.000,4813.0530,N,01619.0742,E,1,8,0.94,305.0,M,43.4,M,,*5B
$GPGSA,A,3,08,28,07,10,26,15,05,19,,,,,1.24,0.94,0.81*08
$GPGSV,3,1,12,08,69,051,37,05,57,239,22,26,49,299,19,28,47,154,27*7F
$GPGSV,3,2,12,07,40,061,50,10,26,175,30,15,14,295,21,19,08,052,17*72
$GPGSV,3,3,12,21,05,331,,13,03,109,,03,03,024,,48,,,*4E
$GPRMC,070152.000,A,4813.0530,N,01619.0742,E,0.78,204.11,270711,,,A*62
$GPVTG,204.11,T,,M,0.78,N,1.45,K,A*34
